[
    {
        "created_date": "2021-02-06 20:54:13.243826",
        "disabled_date": null,
        "station_id": "7000",
        "name": "Fort York  Blvd / Capreol Ct",
        "lat": 43.639832,
        "lon": -79.395954,
        "active": true,
        "system": "bike_share_toronto"
    },
    {
        "created_date": "2021-02-06 20:54:13.244903",
        "disabled_date": null,
        "station_id": "7001",
        "name": "Wellesley Station Green P",
        "lat": 43.66496415990742,
        "lon": -79.38355031526893,
        "active": true,
        "system": "bike_share_toronto"
    },
    {
        "created_date": "2021-02-06 20:54:13.245837",
        "disabled_date": null,
        "station_id": "7002",
        "name": "St. George St / Bloor St W",
        "lat": 43.66713121831853,
        "lon": -79.3995550638237,
        "active": true,
        "system": "bike_share_toronto"
    },
    {
        "created_date": "2021-02-06 20:54:13.246739",
        "disabled_date": null,
        "station_id": "7003",
        "name": "Madison Ave / Bloor St W",
        "lat": 43.66701830465472,
        "lon": -79.4027958687172,
        "active": true,
        "system": "bike_share_toronto"
    },
    {
        "created_date": "2021-02-06 20:54:13.247647",
        "disabled_date": null,
        "station_id": "7004",
        "name": "University Ave / Elm St",
        "lat": 43.656518,
        "lon": -79.389099,
        "active": false,
        "system": "bike_share_toronto"
    },
    {
        "created_date": "2021-02-06 20:54:13.248781",
        "disabled_date": null,
        "station_id": "7005",
        "name": "King St W / York St",
        "lat": 43.6480008,
        "lon": -79.383177,
        "active": true,
        "system": "bike_share_toronto"
    },
    {
        "created_date": "2021-02-06 20:54:13.249750",
        "disabled_date": null,
        "station_id": "7006",
        "name": "Bay St / College St (East Side)",
        "lat": 43.660439,
        "lon": -79.385525,
        "active": true,
        "system": "bike_share_toronto"
    },
    {
        "created_date": "2021-02-06 20:54:13.250702",
        "disabled_date": null,
        "station_id": "7007",
        "name": "College St / Huron St",
        "lat": 43.658148,
        "lon": -79.398167,
        "active": true,
        "system": "bike_share_toronto"
    },
    {
        "created_date": "2021-02-06 20:54:13.251636",
        "disabled_date": null,
        "station_id": "7008",
        "name": "Wellesley St W / Queen's Park Cres",
        "lat": 43.663376,
        "lon": -79.392125,
        "active": true,
        "system": "bike_share_toronto"
    },
    {
        "created_date": "2021-02-06 20:54:13.252571",
        "disabled_date": null,
        "station_id": "7009",
        "name": "King St E / Jarvis St",
        "lat": 43.650325,
        "lon": -79.372287,
        "active": true,
        "system": "bike_share_toronto"
    },
    {
        "created_date": "2021-02-06 20:54:13.253544",
        "disabled_date": null,
        "station_id": "7010",
        "name": "King St W / Spadina Ave",
        "lat": 43.645323,
        "lon": -79.395003,
        "active": true,
        "system": "bike_share_toronto"
    },
    {
        "created_date": "2021-02-06 20:54:13.254497",
        "disabled_date": null,
        "station_id": "7011",
        "name": "Wellington St W / Portland St",
        "lat": 43.642982,
        "lon": -79.399256,
        "active": false,
        "system": "bike_share_toronto"
    },
    {
        "created_date": "2021-02-06 20:54:13.255392",
        "disabled_date": null,
        "station_id": "7012",
        "name": "Elizabeth St / Edward St (Bus Terminal)",
        "lat": 43.656026,
        "lon": -79.385327,
        "active": true,
        "system": "bike_share_toronto"
    },
    {
        "created_date": "2021-02-06 20:54:13.256324",
        "disabled_date": null,
        "station_id": "7013",
        "name": "Scott St / The Esplanade",
        "lat": 43.64659663170443,
        "lon": -79.37530913867988,
        "active": true,
        "system": "bike_share_toronto"
    },
    {
        "created_date": "2021-02-06 20:54:13.257379",
        "disabled_date": null,
        "station_id": "7014",
        "name": "Sherbourne St / Carlton St (Allan Gardens)",
        "lat": 43.663102,
        "lon": -79.373181,
        "active": true,
        "system": "bike_share_toronto"
    },
    {
        "created_date": "2021-02-06 20:54:13.258395",
        "disabled_date": null,
        "station_id": "7015",
        "name": "King St W / Bay St (West Side)",
        "lat": 43.64852,
        "lon": -79.380576,
        "active": true,
        "system": "bike_share_toronto"
    },
    {
        "created_date": "2021-02-06 20:54:13.259660",
        "disabled_date": null,
        "station_id": "7016",
        "name": "Bay St / Queens Quay W (Ferry Terminal)",
        "lat": 43.640978,
        "lon": -79.376785,
        "active": true,
        "system": "bike_share_toronto"
    },
    {
        "created_date": "2021-02-06 20:54:13.260629",
        "disabled_date": null,
        "station_id": "7017",
        "name": "Widmer St / Adelaide St W - SMART",
        "lat": 43.647547634759206,
        "lon": -79.39155200496292,
        "active": true,
        "system": "bike_share_toronto"
    },
    {
        "created_date": "2021-02-06 20:54:13.261563",
        "disabled_date": null,
        "station_id": "7018",
        "name": "Bremner Blvd / Rees St",
        "lat": 43.641529,
        "lon": -79.386741,
        "active": true,
        "system": "bike_share_toronto"
    },
    {
        "created_date": "2021-02-06 20:54:13.262649",
        "disabled_date": null,
        "station_id": "7019",
        "name": "Temperance St Station",
        "lat": 43.650945,
        "lon": -79.379498,
        "active": true,
        "system": "bike_share_toronto"
    },
    {
        "created_date": "2021-02-06 20:54:13.263645",
        "disabled_date": null,
        "station_id": "7020",
        "name": "Phoebe St / Spadina Ave",
        "lat": 43.650033,
        "lon": -79.396555,
        "active": true,
        "system": "bike_share_toronto"
    },
    {
        "created_date": "2021-02-06 20:54:13.264628",
        "disabled_date": null,
        "station_id": "7021",
        "name": "Bay St / Albert St",
        "lat": 43.653264,
        "lon": -79.382458,
        "active": true,
        "system": "bike_share_toronto"
    },
    {
        "created_date": "2021-02-06 20:54:13.265666",
        "disabled_date": null,
        "station_id": "7022",
        "name": "Simcoe St / Queen St W",
        "lat": 43.65049,
        "lon": -79.3873,
        "active": true,
        "system": "bike_share_toronto"
    },
    {
        "created_date": "2021-02-06 20:54:13.266606",
        "disabled_date": null,
        "station_id": "7023",
        "name": "College St / Borden St",
        "lat": 43.6571,
        "lon": -79.4056,
        "active": true,
        "system": "bike_share_toronto"
    },
    {
        "created_date": "2021-02-06 20:54:13.267523",
        "disabled_date": null,
        "station_id": "7024",
        "name": "Dundonald St / Church St",
        "lat": 43.66663,
        "lon": -79.38148,
        "active": true,
        "system": "bike_share_toronto"
    },
    {
        "created_date": "2021-02-06 20:54:13.268420",
        "disabled_date": null,
        "station_id": "7025",
        "name": "Ted Rogers Way / Bloor St E",
        "lat": 43.671293,
        "lon": -79.380471,
        "active": true,
        "system": "bike_share_toronto"
    },
    {
        "created_date": "2021-02-06 20:54:13.269369",
        "disabled_date": null,
        "station_id": "7026",
        "name": "Bay St / St. Joseph St",
        "lat": 43.665527,
        "lon": -79.387499,
        "active": true,
        "system": "bike_share_toronto"
    },
    {
        "created_date": "2021-02-06 20:54:13.270261",
        "disabled_date": null,
        "station_id": "7027",
        "name": "Beverley St / Dundas St W",
        "lat": 43.652823,
        "lon": -79.393388,
        "active": true,
        "system": "bike_share_toronto"
    },
    {
        "created_date": "2021-02-06 20:54:13.271148",
        "disabled_date": null,
        "station_id": "7028",
        "name": "Gould St / Mutual St",
        "lat": 43.6582,
        "lon": -79.3768,
        "active": true,
        "system": "bike_share_toronto"
    },
    {
        "created_date": "2021-02-06 20:54:13.272041",
        "disabled_date": null,
        "station_id": "7029",
        "name": "Bay St / Bloor St W (East Side)",
        "lat": 43.66943,
        "lon": -79.38915,
        "active": true,
        "system": "bike_share_toronto"
    },
    {
        "created_date": "2021-02-06 20:54:13.272953",
        "disabled_date": null,
        "station_id": "7030",
        "name": "Bay St / Wellesley St W",
        "lat": 43.664088,
        "lon": -79.387095,
        "active": true,
        "system": "bike_share_toronto"
    },
    {
        "created_date": "2021-02-06 20:54:13.273859",
        "disabled_date": null,
        "station_id": "7031",
        "name": "Jarvis St / Isabella St",
        "lat": 43.668991,
        "lon": -79.379385,
        "active": true,
        "system": "bike_share_toronto"
    },
    {
        "created_date": "2021-02-06 20:54:13.274742",
        "disabled_date": null,
        "station_id": "7032",
        "name": "Augusta Ave / Dundas St W",
        "lat": 43.652473,
        "lon": -79.401456,
        "active": true,
        "system": "bike_share_toronto"
    },
    {
        "created_date": "2021-02-06 20:54:13.275639",
        "disabled_date": null,
        "station_id": "7033",
        "name": "Union Station",
        "lat": 43.645609,
        "lon": -79.380386,
        "active": true,
        "system": "bike_share_toronto"
    },
    {
        "created_date": "2021-02-06 20:54:13.276540",
        "disabled_date": null,
        "station_id": "7034",
        "name": "Church St / Bloor St E",
        "lat": 43.671389,
        "lon": -79.382919,
        "active": true,
        "system": "bike_share_toronto"
    },
    {
        "created_date": "2021-02-06 20:54:13.277447",
        "disabled_date": null,
        "station_id": "7035",
        "name": "Queen St W / Ossington Ave",
        "lat": 43.643975,
        "lon": -79.419576,
        "active": true,
        "system": "bike_share_toronto"
    },
    {
        "created_date": "2021-02-06 20:54:13.278352",
        "disabled_date": null,
        "station_id": "7036",
        "name": "Trinity St /Front St E",
        "lat": 43.651318,
        "lon": -79.36023,
        "active": true,
        "system": "bike_share_toronto"
    },
    {
        "created_date": "2021-02-06 20:54:13.279286",
        "disabled_date": null,
        "station_id": "7037",
        "name": "Bathurst St / Dundas St W",
        "lat": 43.6518918789007,
        "lon": -79.40577861712723,
        "active": true,
        "system": "bike_share_toronto"
    },
    {
        "created_date": "2021-02-06 20:54:13.280154",
        "disabled_date": null,
        "station_id": "7038",
        "name": "Dundas St W / Yonge St",
        "lat": 43.656094,
        "lon": -79.381484,
        "active": true,
        "system": "bike_share_toronto"
    },
    {
        "created_date": "2021-02-06 20:54:13.281060",
        "disabled_date": null,
        "station_id": "7039",
        "name": "Simcoe St / Michael Sweet Ave",
        "lat": 43.652327224103,
        "lon": -79.3882538196087,
        "active": true,
        "system": "bike_share_toronto"
    },
    {
        "created_date": "2021-02-06 20:54:13.281942",
        "disabled_date": null,
        "station_id": "7040",
        "name": "Euclid Ave / Bloor St W",
        "lat": 43.664467,
        "lon": -79.414783,
        "active": true,
        "system": "bike_share_toronto"
    },
    {
        "created_date": "2021-02-06 20:54:13.282848",
        "disabled_date": null,
        "station_id": "7041",
        "name": "Edward St / Yonge St",
        "lat": 43.656729,
        "lon": -79.382736,
        "active": true,
        "system": "bike_share_toronto"
    },
    {
        "created_date": "2021-02-06 20:54:13.283759",
        "disabled_date": null,
        "station_id": "7042",
        "name": "Sherbourne St / Wellesley St E",
        "lat": 43.6673,
        "lon": -79.374,
        "active": true,
        "system": "bike_share_toronto"
    },
    {
        "created_date": "2021-02-06 20:54:13.284636",
        "disabled_date": null,
        "station_id": "7043",
        "name": "Queens Quay W / Lower Simcoe St",
        "lat": 43.63951,
        "lon": -79.383717,
        "active": true,
        "system": "bike_share_toronto"
    },
    {
        "created_date": "2021-02-06 20:54:13.285548",
        "disabled_date": null,
        "station_id": "7044",
        "name": "Church St / Alexander St",
        "lat": 43.663722,
        "lon": -79.380288,
        "active": true,
        "system": "bike_share_toronto"
    },
    {
        "created_date": "2021-02-06 20:54:13.286438",
        "disabled_date": null,
        "station_id": "7045",
        "name": "Bond St / Queen St E",
        "lat": 43.653236,
        "lon": -79.376716,
        "active": true,
        "system": "bike_share_toronto"
    },
    {
        "created_date": "2021-02-06 20:54:13.287345",
        "disabled_date": null,
        "station_id": "7046",
        "name": "Niagara St / Richmond St W",
        "lat": 43.64534,
        "lon": -79.409597,
        "active": true,
        "system": "bike_share_toronto"
    },
    {
        "created_date": "2021-02-06 20:54:13.288224",
        "disabled_date": null,
        "station_id": "7047",
        "name": "University Ave / Gerrard St W (East Side)",
        "lat": 43.657763,
        "lon": -79.389165,
        "active": true,
        "system": "bike_share_toronto"
    },
    {
        "created_date": "2021-02-06 20:54:13.289111",
        "disabled_date": null,
        "station_id": "7048",
        "name": "Front St W / Yonge St (Hockey Hall of Fame)",
        "lat": 43.646144,
        "lon": -79.377962,
        "active": true,
        "system": "bike_share_toronto"
    },
    {
        "created_date": "2021-02-06 20:54:13.290006",
        "disabled_date": null,
        "station_id": "7049",
        "name": "Portland St / Queen St W",
        "lat": 43.6476,
        "lon": -79.4015,
        "active": true,
        "system": "bike_share_toronto"
    },
    {
        "created_date": "2021-02-06 20:54:13.290872",
        "disabled_date": null,
        "station_id": "7050",
        "name": "Richmond St E / Jarvis St Green P",
        "lat": 43.652634,
        "lon": -79.374222,
        "active": true,
        "system": "bike_share_toronto"
    },
    {
        "created_date": "2021-02-06 20:54:13.291756",
        "disabled_date": null,
        "station_id": "7051",
        "name": "Mutual St / Shuter St",
        "lat": 43.6548789,
        "lon": -79.37509070000002,
        "active": false,
        "system": "bike_share_toronto"
    },
    {
        "created_date": "2021-02-06 20:54:13.292690",
        "disabled_date": null,
        "station_id": "7052",
        "name": "Wellington St W / Bay St",
        "lat": 43.647259,
        "lon": -79.379878,
        "active": true,
        "system": "bike_share_toronto"
    },
    {
        "created_date": "2021-02-06 20:54:13.293679",
        "disabled_date": null,
        "station_id": "7053",
        "name": "Metro Hall Plaza",
        "lat": 43.645859,
        "lon": -79.38783,
        "active": true,
        "system": "bike_share_toronto"
    },
    {
        "created_date": "2021-02-06 20:54:13.294578",
        "disabled_date": null,
        "station_id": "7054",
        "name": "Navy Wharf Crt / Bremner Blvd",
        "lat": 43.640722,
        "lon": -79.391051,
        "active": true,
        "system": "bike_share_toronto"
    },
    {
        "created_date": "2021-02-06 20:54:13.295481",
        "disabled_date": null,
        "station_id": "7055",
        "name": "Jarvis St / Carlton St",
        "lat": 43.66207,
        "lon": -79.37617,
        "active": true,
        "system": "bike_share_toronto"
    },
    {
        "created_date": "2021-02-06 20:54:13.296374",
        "disabled_date": null,
        "station_id": "7056",
        "name": "Gerrard St E / Gifford st ",
        "lat": 43.66275642864136,
        "lon": -79.36300804848496,
        "active": false,
        "system": "bike_share_toronto"
    },
    {
        "created_date": "2021-02-06 20:54:13.297267",
        "disabled_date": null,
        "station_id": "7057",
        "name": "Simcoe St / Wellington St W South",
        "lat": 43.6458569,
        "lon": -79.3853654,
        "active": true,
        "system": "bike_share_toronto"
    },
    {
        "created_date": "2021-02-06 20:54:13.298208",
        "disabled_date": null,
        "station_id": "7058",
        "name": "Huron St / Harbord St",
        "lat": 43.6637,
        "lon": -79.400053,
        "active": true,
        "system": "bike_share_toronto"
    },
    {
        "created_date": "2021-02-06 20:54:13.299132",
        "disabled_date": null,
        "station_id": "7059",
        "name": "Front St W / Blue Jays Way",
        "lat": 43.643473,
        "lon": -79.390477,
        "active": true,
        "system": "bike_share_toronto"
    },
    {
        "created_date": "2021-02-06 20:54:13.300110",
        "disabled_date": null,
        "station_id": "7060",
        "name": "Princess St / Adelaide St E",
        "lat": 43.652123,
        "lon": -79.367139,
        "active": false,
        "system": "bike_share_toronto"
    },
    {
        "created_date": "2021-02-06 20:54:13.301062",
        "disabled_date": null,
        "station_id": "7061",
        "name": "Dalton Rd / Bloor St W",
        "lat": 43.6662942,
        "lon": -79.4066433,
        "active": true,
        "system": "bike_share_toronto"
    },
    {
        "created_date": "2021-02-06 20:54:13.301969",
        "disabled_date": null,
        "station_id": "7062",
        "name": "University Ave / College St (West)",
        "lat": 43.659226,
        "lon": -79.390213,
        "active": false,
        "system": "bike_share_toronto"
    },
    {
        "created_date": "2021-02-06 20:54:13.302928",
        "disabled_date": null,
        "station_id": "7063",
        "name": "Queen's Park / Bloor St W",
        "lat": 43.668456,
        "lon": -79.393899,
        "active": true,
        "system": "bike_share_toronto"
    },
    {
        "created_date": "2021-02-06 20:54:13.303862",
        "disabled_date": null,
        "station_id": "7064",
        "name": "51 Parliament St",
        "lat": 43.652169,
        "lon": -79.362841,
        "active": true,
        "system": "bike_share_toronto"
    },
    {
        "created_date": "2021-02-06 20:54:13.304746",
        "disabled_date": null,
        "station_id": "7065",
        "name": "Dundas St E / Parliament St",
        "lat": 43.659575,
        "lon": -79.365769,
        "active": true,
        "system": "bike_share_toronto"
    },
    {
        "created_date": "2021-02-06 20:54:13.305803",
        "disabled_date": null,
        "station_id": "7066",
        "name": "Willcocks St / St. George St",
        "lat": 43.662085,
        "lon": -79.397735,
        "active": true,
        "system": "bike_share_toronto"
    },
    {
        "created_date": "2021-02-06 20:54:13.306709",
        "disabled_date": null,
        "station_id": "7067",
        "name": "Yonge St / Harbour St",
        "lat": 43.643795,
        "lon": -79.375413,
        "active": false,
        "system": "bike_share_toronto"
    },
    {
        "created_date": "2021-02-06 20:54:13.307600",
        "disabled_date": null,
        "station_id": "7068",
        "name": "Blantyre Park",
        "lat": 43.68306889999999,
        "lon": -79.279682,
        "active": true,
        "system": "bike_share_toronto"
    },
    {
        "created_date": "2021-02-06 20:54:13.310106",
        "disabled_date": null,
        "station_id": "7069",
        "name": "Queen St W / Spadina Ave",
        "lat": 43.649147,
        "lon": -79.395504,
        "active": true,
        "system": "bike_share_toronto"
    },
    {
        "created_date": "2021-02-06 20:54:13.311076",
        "disabled_date": null,
        "station_id": "7070",
        "name": "25 York St \u2013 Union Station South",
        "lat": 43.643667,
        "lon": -79.380414,
        "active": true,
        "system": "bike_share_toronto"
    },
    {
        "created_date": "2021-02-06 20:54:13.312175",
        "disabled_date": null,
        "station_id": "7071",
        "name": "161 Bleecker St (South of Wellesley)",
        "lat": 43.666233,
        "lon": -79.373327,
        "active": true,
        "system": "bike_share_toronto"
    },
    {
        "created_date": "2021-02-06 20:54:13.313068",
        "disabled_date": null,
        "station_id": "7072",
        "name": "Fleet St / Bathurst St",
        "lat": 43.636611,
        "lon": -79.400042,
        "active": true,
        "system": "bike_share_toronto"
    },
    {
        "created_date": "2021-02-06 20:54:13.313993",
        "disabled_date": null,
        "station_id": "7073",
        "name": "Spadina Ave / Fort York Blvd",
        "lat": 43.640114,
        "lon": -79.393249,
        "active": true,
        "system": "bike_share_toronto"
    },
    {
        "created_date": "2021-02-06 20:54:13.314917",
        "disabled_date": null,
        "station_id": "7074",
        "name": "King St E / Church St",
        "lat": 43.65003919999999,
        "lon": -79.3733541,
        "active": true,
        "system": "bike_share_toronto"
    },
    {
        "created_date": "2021-02-06 20:54:13.315856",
        "disabled_date": null,
        "station_id": "7075",
        "name": "Queens Quay W / Dan Leckie Way",
        "lat": 43.636533,
        "lon": -79.395854,
        "active": true,
        "system": "bike_share_toronto"
    },
    {
        "created_date": "2021-02-06 20:54:13.316738",
        "disabled_date": null,
        "station_id": "7076",
        "name": "York St / Queens Quay W",
        "lat": 43.640132,
        "lon": -79.380464,
        "active": true,
        "system": "bike_share_toronto"
    },
    {
        "created_date": "2021-02-06 20:54:13.317613",
        "disabled_date": null,
        "station_id": "7077",
        "name": "College Park South",
        "lat": 43.65945682499,
        "lon": -79.38236466864778,
        "active": true,
        "system": "bike_share_toronto"
    },
    {
        "created_date": "2021-02-06 20:54:13.318494",
        "disabled_date": null,
        "station_id": "7078",
        "name": "College St / Major St",
        "lat": 43.6576,
        "lon": -79.4032,
        "active": true,
        "system": "bike_share_toronto"
    },
    {
        "created_date": "2021-02-06 20:54:13.319386",
        "disabled_date": null,
        "station_id": "7079",
        "name": "McGill St / Church St",
        "lat": 43.660694,
        "lon": -79.379052,
        "active": true,
        "system": "bike_share_toronto"
    },
    {
        "created_date": "2021-02-06 20:54:13.320266",
        "disabled_date": null,
        "station_id": "7083",
        "name": "Danforth Ave / Barrington Ave",
        "lat": 43.688325,
        "lon": -79.300463,
        "active": true,
        "system": "bike_share_toronto"
    },
    {
        "created_date": "2021-02-06 20:54:13.321136",
        "disabled_date": null,
        "station_id": "7084",
        "name": "High Park - Grenadier Cafe",
        "lat": 43.645599,
        "lon": -79.4657123,
        "active": true,
        "system": "bike_share_toronto"
    },
    {
        "created_date": "2021-02-06 20:54:13.322024",
        "disabled_date": null,
        "station_id": "7085",
        "name": "Danforth Ave / Westlake Ave",
        "lat": 43.687323,
        "lon": -79.304848,
        "active": true,
        "system": "bike_share_toronto"
    },
    {
        "created_date": "2021-02-06 20:54:13.322937",
        "disabled_date": null,
        "station_id": "7086",
        "name": "High Park - West Rd",
        "lat": 43.651922,
        "lon": -79.465693,
        "active": true,
        "system": "bike_share_toronto"
    },
    {
        "created_date": "2021-02-06 20:54:13.323852",
        "disabled_date": null,
        "station_id": "7087",
        "name": "Danforth Ave / Aldridge Ave",
        "lat": 43.684758,
        "lon": -79.316767,
        "active": true,
        "system": "bike_share_toronto"
    },
    {
        "created_date": "2021-02-06 20:54:13.324751",
        "disabled_date": null,
        "station_id": "7088",
        "name": "Danforth Ave / Coxwell Ave",
        "lat": 43.683378,
        "lon": -79.322961,
        "active": true,
        "system": "bike_share_toronto"
    },
    {
        "created_date": "2021-02-06 20:54:13.325653",
        "disabled_date": null,
        "station_id": "7089",
        "name": "Church St  / Wood St",
        "lat": 43.662712,
        "lon": -79.379903,
        "active": true,
        "system": "bike_share_toronto"
    },
    {
        "created_date": "2021-02-06 20:54:13.326570",
        "disabled_date": null,
        "station_id": "7090",
        "name": "Danforth Ave / Lamb Ave",
        "lat": 43.681991,
        "lon": -79.329455,
        "active": true,
        "system": "bike_share_toronto"
    },
    {
        "created_date": "2021-02-06 20:54:13.327465",
        "disabled_date": null,
        "station_id": "7091",
        "name": "Donlands Subway Station",
        "lat": 43.681114,
        "lon": -79.3373885,
        "active": true,
        "system": "bike_share_toronto"
    },
    {
        "created_date": "2021-02-06 20:54:13.328348",
        "disabled_date": null,
        "station_id": "7092",
        "name": "Pape Subway Station (Green P)",
        "lat": 43.680223,
        "lon": -79.344062,
        "active": false,
        "system": "bike_share_toronto"
    },
    {
        "created_date": "2021-02-06 20:54:13.329240",
        "disabled_date": null,
        "station_id": "7093",
        "name": "Danforth Ave / Gough Ave",
        "lat": 43.678401,
        "lon": -79.346289,
        "active": true,
        "system": "bike_share_toronto"
    },
    {
        "created_date": "2021-02-06 20:54:13.330106",
        "disabled_date": null,
        "station_id": "7094",
        "name": "14 Arundel Ave",
        "lat": 43.6784834,
        "lon": -79.3513564,
        "active": true,
        "system": "bike_share_toronto"
    },
    {
        "created_date": "2021-02-06 20:54:13.330972",
        "disabled_date": null,
        "station_id": "7095",
        "name": "Danforth Ave / Ellerbeck St",
        "lat": 43.677076,
        "lon": -79.35667,
        "active": true,
        "system": "bike_share_toronto"
    },
    {
        "created_date": "2021-02-06 20:54:13.331828",
        "disabled_date": null,
        "station_id": "7096",
        "name": "Lower Don River Trail and Taylor Creek Trail",
        "lat": 43.7027268,
        "lon": -79.33368089999999,
        "active": true,
        "system": "bike_share_toronto"
    },
    {
        "created_date": "2021-02-06 20:54:13.332730",
        "disabled_date": null,
        "station_id": "7097",
        "name": "Riverdale Park North (Broadview Ave)",
        "lat": 43.671172,
        "lon": -79.354704,
        "active": true,
        "system": "bike_share_toronto"
    },
    {
        "created_date": "2021-02-06 20:54:13.333644",
        "disabled_date": null,
        "station_id": "7098",
        "name": "Riverdale Park South (Broadview Ave)",
        "lat": 43.667819,
        "lon": -79.35347,
        "active": true,
        "system": "bike_share_toronto"
    },
    {
        "created_date": "2021-02-06 20:54:13.334562",
        "disabled_date": null,
        "station_id": "7099",
        "name": "Cherry St / Mill St",
        "lat": 43.6513927,
        "lon": -79.35794659999999,
        "active": true,
        "system": "bike_share_toronto"
    },
    {
        "created_date": "2021-02-06 20:54:13.335431",
        "disabled_date": null,
        "station_id": "7100",
        "name": "Dundas St E / Regent Park Blvd",
        "lat": 43.660207,
        "lon": -79.361275,
        "active": true,
        "system": "bike_share_toronto"
    },
    {
        "created_date": "2021-02-06 20:54:13.336310",
        "disabled_date": null,
        "station_id": "7101",
        "name": "Lower Sherbourne St / The Esplanade",
        "lat": 43.648655,
        "lon": -79.367061,
        "active": true,
        "system": "bike_share_toronto"
    },
    {
        "created_date": "2021-02-06 20:54:13.337175",
        "disabled_date": null,
        "station_id": "7102",
        "name": "Nelson St / Duncan St",
        "lat": 43.648711,
        "lon": -79.389728,
        "active": true,
        "system": "bike_share_toronto"
    },
    {
        "created_date": "2021-02-06 20:54:13.338051",
        "disabled_date": null,
        "station_id": "7103",
        "name": "Jimmie Simpson Park (Queen St E)",
        "lat": 43.6605603,
        "lon": -79.3437663,
        "active": true,
        "system": "bike_share_toronto"
    },
    {
        "created_date": "2021-02-06 20:54:13.338920",
        "disabled_date": null,
        "station_id": "7104",
        "name": "King St E / River St",
        "lat": 43.656784782853144,
        "lon": -79.35627385059036,
        "active": true,
        "system": "bike_share_toronto"
    },
    {
        "created_date": "2021-02-06 20:54:13.339792",
        "disabled_date": null,
        "station_id": "7105",
        "name": "Queen St E / Sackville St",
        "lat": 43.6561111,
        "lon": -79.36138888888888,
        "active": true,
        "system": "bike_share_toronto"
    },
    {
        "created_date": "2021-02-06 20:54:13.340649",
        "disabled_date": null,
        "station_id": "7106",
        "name": "Mill St / Tannery Rd",
        "lat": 43.652219,
        "lon": -79.354455,
        "active": true,
        "system": "bike_share_toronto"
    },
    {
        "created_date": "2021-02-06 20:54:13.341503",
        "disabled_date": null,
        "station_id": "7107",
        "name": "Cherry St / Distillery Ln",
        "lat": 43.650279,
        "lon": -79.356832,
        "active": true,
        "system": "bike_share_toronto"
    },
    {
        "created_date": "2021-02-06 20:54:13.342377",
        "disabled_date": null,
        "station_id": "7108",
        "name": "Front St E / Cherry St",
        "lat": 43.652686,
        "lon": -79.358395,
        "active": true,
        "system": "bike_share_toronto"
    },
    {
        "created_date": "2021-02-06 20:54:13.343306",
        "disabled_date": null,
        "station_id": "7109",
        "name": "Seaton St / Dundas St E - SMART",
        "lat": 43.658777,
        "lon": -79.369596,
        "active": true,
        "system": "bike_share_toronto"
    },
    {
        "created_date": "2021-02-06 20:54:13.344282",
        "disabled_date": null,
        "station_id": "7110",
        "name": "Queen St E / Berkeley St",
        "lat": 43.6552778,
        "lon": -79.36583333333333,
        "active": true,
        "system": "bike_share_toronto"
    },
    {
        "created_date": "2021-02-06 20:54:13.345507",
        "disabled_date": null,
        "station_id": "7111",
        "name": "King St W / Douro St",
        "lat": 43.640885,
        "lon": -79.416379,
        "active": true,
        "system": "bike_share_toronto"
    },
    {
        "created_date": "2021-02-06 20:54:13.346519",
        "disabled_date": null,
        "station_id": "7112",
        "name": "Liberty St / Fraser Ave Green P",
        "lat": 43.637981,
        "lon": -79.424146,
        "active": true,
        "system": "bike_share_toronto"
    },
    {
        "created_date": "2021-02-06 20:54:13.347448",
        "disabled_date": null,
        "station_id": "7113",
        "name": "Parliament St / Aberdeen Ave",
        "lat": 43.665278,
        "lon": -79.368333,
        "active": true,
        "system": "bike_share_toronto"
    },
    {
        "created_date": "2021-02-06 20:54:13.348412",
        "disabled_date": null,
        "station_id": "7114",
        "name": "Carlton St / Parliament St",
        "lat": 43.664524,
        "lon": -79.36793,
        "active": true,
        "system": "bike_share_toronto"
    },
    {
        "created_date": "2021-02-06 20:54:13.349361",
        "disabled_date": null,
        "station_id": "7115",
        "name": "Howard St / Sherbourne St",
        "lat": 43.6712581,
        "lon": -79.376367,
        "active": true,
        "system": "bike_share_toronto"
    },
    {
        "created_date": "2021-02-06 20:54:13.350251",
        "disabled_date": null,
        "station_id": "7116",
        "name": "Bloor St E / Parliament St",
        "lat": 43.671946102001826,
        "lon": -79.37245115337294,
        "active": true,
        "system": "bike_share_toronto"
    },
    {
        "created_date": "2021-02-06 20:54:13.351171",
        "disabled_date": null,
        "station_id": "7117",
        "name": "640 Bloor Street E",
        "lat": 43.67468857448634,
        "lon": -79.36701962396272,
        "active": true,
        "system": "bike_share_toronto"
    },
    {
        "created_date": "2021-02-06 20:54:13.352076",
        "disabled_date": null,
        "station_id": "7118",
        "name": "King St W / Bay St (East Side)",
        "lat": 43.648575,
        "lon": -79.380042,
        "active": true,
        "system": "bike_share_toronto"
    },
    {
        "created_date": "2021-02-06 20:54:13.353022",
        "disabled_date": null,
        "station_id": "7119",
        "name": "Sumach St / Carlton St (Riverdale Farm)",
        "lat": 43.665867,
        "lon": -79.362506,
        "active": true,
        "system": "bike_share_toronto"
    },
    {
        "created_date": "2021-02-06 20:54:13.353999",
        "disabled_date": null,
        "station_id": "7120",
        "name": "Gerrard St E / River St",
        "lat": 43.663993,
        "lon": -79.358534,
        "active": true,
        "system": "bike_share_toronto"
    },
    {
        "created_date": "2021-02-06 20:54:13.354905",
        "disabled_date": null,
        "station_id": "7121",
        "name": "Jarvis St / Dundas St E",
        "lat": 43.657266,
        "lon": -79.374756,
        "active": true,
        "system": "bike_share_toronto"
    },
    {
        "created_date": "2021-02-06 20:54:13.355809",
        "disabled_date": null,
        "station_id": "7122",
        "name": "Niagara St / Tecumseth St",
        "lat": 43.641389,
        "lon": -79.404444,
        "active": true,
        "system": "bike_share_toronto"
    },
    {
        "created_date": "2021-02-06 20:54:13.356696",
        "disabled_date": null,
        "station_id": "7123",
        "name": "420 Wellington St W",
        "lat": 43.643834,
        "lon": -79.396649,
        "active": true,
        "system": "bike_share_toronto"
    },
    {
        "created_date": "2021-02-06 20:54:13.357576",
        "disabled_date": null,
        "station_id": "7124",
        "name": "Dundas St E / Broadview Ave",
        "lat": 43.662365,
        "lon": -79.351104,
        "active": true,
        "system": "bike_share_toronto"
    },
    {
        "created_date": "2021-02-06 20:54:13.358470",
        "disabled_date": null,
        "station_id": "7126",
        "name": "Yonge St / Yorkville Ave",
        "lat": 43.671944,
        "lon": -79.387778,
        "active": true,
        "system": "bike_share_toronto"
    },
    {
        "created_date": "2021-02-06 20:54:13.359377",
        "disabled_date": null,
        "station_id": "7127",
        "name": "Bay St / Scollard St",
        "lat": 43.672152,
        "lon": -79.39018,
        "active": true,
        "system": "bike_share_toronto"
    },
    {
        "created_date": "2021-02-06 20:54:13.360268",
        "disabled_date": null,
        "station_id": "7128",
        "name": "Yonge St / Aylmer Ave",
        "lat": 43.675492,
        "lon": -79.388858,
        "active": true,
        "system": "bike_share_toronto"
    },
    {
        "created_date": "2021-02-06 20:54:13.361219",
        "disabled_date": null,
        "station_id": "7129",
        "name": "Davenport Rd / Avenue Rd",
        "lat": 43.674991,
        "lon": -79.396273,
        "active": true,
        "system": "bike_share_toronto"
    },
    {
        "created_date": "2021-02-06 20:54:13.362112",
        "disabled_date": null,
        "station_id": "7130",
        "name": "Davenport Rd / Bedford Rd",
        "lat": 43.674446,
        "lon": -79.398331,
        "active": true,
        "system": "bike_share_toronto"
    },
    {
        "created_date": "2021-02-06 20:54:13.363018",
        "disabled_date": null,
        "station_id": "7131",
        "name": "Taddle Creek Park",
        "lat": 43.66986,
        "lon": -79.398443,
        "active": true,
        "system": "bike_share_toronto"
    },
    {
        "created_date": "2021-02-06 20:54:13.363942",
        "disabled_date": null,
        "station_id": "7132",
        "name": "Kendal Ave / Spadina Rd",
        "lat": 43.670318,
        "lon": -79.405181,
        "active": true,
        "system": "bike_share_toronto"
    },
    {
        "created_date": "2021-02-06 20:54:13.364837",
        "disabled_date": null,
        "station_id": "7133",
        "name": "Summerhill Subway Station",
        "lat": 43.681944,
        "lon": -79.390556,
        "active": true,
        "system": "bike_share_toronto"
    },
    {
        "created_date": "2021-02-06 20:54:13.365751",
        "disabled_date": null,
        "station_id": "7134",
        "name": "Marlborough Ave / Yonge St",
        "lat": 43.68,
        "lon": -79.391111,
        "active": false,
        "system": "bike_share_toronto"
    },
    {
        "created_date": "2021-02-06 20:54:13.366638",
        "disabled_date": null,
        "station_id": "7135",
        "name": "Hanna Ave / Liberty St",
        "lat": 43.638608601636705,
        "lon": -79.41965437361068,
        "active": true,
        "system": "bike_share_toronto"
    },
    {
        "created_date": "2021-02-06 20:54:13.367516",
        "disabled_date": null,
        "station_id": "7136",
        "name": "Queen St W / Close Ave",
        "lat": 43.640634,
        "lon": -79.435841,
        "active": false,
        "system": "bike_share_toronto"
    },
    {
        "created_date": "2021-02-06 20:54:13.368406",
        "disabled_date": null,
        "station_id": "7137",
        "name": "Davenport Rd / Bathurst St",
        "lat": 43.676667,
        "lon": -79.416111,
        "active": false,
        "system": "bike_share_toronto"
    },
    {
        "created_date": "2021-02-06 20:54:13.369316",
        "disabled_date": null,
        "station_id": "7138",
        "name": "Davenport Rd / Christie St",
        "lat": 43.675278,
        "lon": -79.423889,
        "active": true,
        "system": "bike_share_toronto"
    },
    {
        "created_date": "2021-02-06 20:54:13.370207",
        "disabled_date": null,
        "station_id": "7139",
        "name": "Glen Edyth Dr / Davenport Rd",
        "lat": 43.677778,
        "lon": -79.405556,
        "active": true,
        "system": "bike_share_toronto"
    },
    {
        "created_date": "2021-02-06 20:54:13.371102",
        "disabled_date": null,
        "station_id": "7140",
        "name": "Macpherson Ave / Spadina Rd",
        "lat": 43.675791,
        "lon": -79.40698,
        "active": true,
        "system": "bike_share_toronto"
    },
    {
        "created_date": "2021-02-06 20:54:13.372008",
        "disabled_date": null,
        "station_id": "7141",
        "name": "Bridgman Ave / Kendal Ave",
        "lat": 43.675556,
        "lon": -79.410278,
        "active": true,
        "system": "bike_share_toronto"
    },
    {
        "created_date": "2021-02-06 20:54:13.372925",
        "disabled_date": null,
        "station_id": "7142",
        "name": "Bridgman Ave / Bathurst St",
        "lat": 43.674444,
        "lon": -79.414722,
        "active": true,
        "system": "bike_share_toronto"
    },
    {
        "created_date": "2021-02-06 20:54:13.373842",
        "disabled_date": null,
        "station_id": "7143",
        "name": "Kendal Ave / Bernard Ave",
        "lat": 43.671513,
        "lon": -79.408317,
        "active": true,
        "system": "bike_share_toronto"
    },
    {
        "created_date": "2021-02-06 20:54:13.374720",
        "disabled_date": null,
        "station_id": "7144",
        "name": "Palmerston Ave / Vermont Ave",
        "lat": 43.671389,
        "lon": -79.416389,
        "active": true,
        "system": "bike_share_toronto"
    },
    {
        "created_date": "2021-02-06 20:54:13.375659",
        "disabled_date": null,
        "station_id": "7146",
        "name": "Christie St / Benson Ave (Wychwood Barns)",
        "lat": 43.68,
        "lon": -79.42500000000001,
        "active": true,
        "system": "bike_share_toronto"
    },
    {
        "created_date": "2021-02-06 20:54:13.376544",
        "disabled_date": null,
        "station_id": "7147",
        "name": "King St W / Fraser Ave",
        "lat": 43.6394444,
        "lon": -79.42527777777778,
        "active": true,
        "system": "bike_share_toronto"
    },
    {
        "created_date": "2021-02-06 20:54:13.377425",
        "disabled_date": null,
        "station_id": "7148",
        "name": "King St W / Joe Shuster Way",
        "lat": 43.639444,
        "lon": -79.423611,
        "active": true,
        "system": "bike_share_toronto"
    },
    {
        "created_date": "2021-02-06 20:54:13.378306",
        "disabled_date": null,
        "station_id": "7149",
        "name": "Yarmouth Rd / Christie St",
        "lat": 43.67,
        "lon": -79.42083333333333,
        "active": true,
        "system": "bike_share_toronto"
    },
    {
        "created_date": "2021-02-06 20:54:13.379222",
        "disabled_date": null,
        "station_id": "7150",
        "name": "Dufferin St / Sylvan Av (Dufferin Grove Park)",
        "lat": 43.6555556,
        "lon": -79.43361111111112,
        "active": true,
        "system": "bike_share_toronto"
    },
    {
        "created_date": "2021-02-06 20:54:13.380111",
        "disabled_date": null,
        "station_id": "7151",
        "name": "Essex St / Christie St - SMART",
        "lat": 43.6686111,
        "lon": -79.42027777777778,
        "active": true,
        "system": "bike_share_toronto"
    },
    {
        "created_date": "2021-02-06 20:54:13.381056",
        "disabled_date": null,
        "station_id": "7152",
        "name": "Ossington Ave / Bloor St W",
        "lat": 43.661705,
        "lon": -79.425734,
        "active": true,
        "system": "bike_share_toronto"
    },
    {
        "created_date": "2021-02-06 20:54:13.381958",
        "disabled_date": null,
        "station_id": "7153",
        "name": "Bloor St W / Christie St",
        "lat": 43.6638889,
        "lon": -79.41888888888889,
        "active": true,
        "system": "bike_share_toronto"
    },
    {
        "created_date": "2021-02-06 20:54:13.382882",
        "disabled_date": null,
        "station_id": "7154",
        "name": "Bathurst Subway Station",
        "lat": 43.6666667,
        "lon": -79.41166666666668,
        "active": true,
        "system": "bike_share_toronto"
    },
    {
        "created_date": "2021-02-06 20:54:13.383828",
        "disabled_date": null,
        "station_id": "7155",
        "name": "Bathurst St / Lennox St",
        "lat": 43.663808,
        "lon": -79.410491,
        "active": true,
        "system": "bike_share_toronto"
    },
    {
        "created_date": "2021-02-06 20:54:13.384758",
        "disabled_date": null,
        "station_id": "7156",
        "name": "Salem Ave / Bloor St W",
        "lat": 43.6608333,
        "lon": -79.43166666666667,
        "active": true,
        "system": "bike_share_toronto"
    },
    {
        "created_date": "2021-02-06 20:54:13.385676",
        "disabled_date": null,
        "station_id": "7157",
        "name": "Dufferin St / Bloor St W",
        "lat": 43.66083333333333,
        "lon": -79.43583333333333,
        "active": true,
        "system": "bike_share_toronto"
    },
    {
        "created_date": "2021-02-06 20:54:13.386607",
        "disabled_date": null,
        "station_id": "7158",
        "name": "King St W / Stafford St",
        "lat": 43.6422222,
        "lon": -79.41111111111111,
        "active": true,
        "system": "bike_share_toronto"
    },
    {
        "created_date": "2021-02-06 20:54:13.387511",
        "disabled_date": null,
        "station_id": "7160",
        "name": "King St W / Tecumseth St",
        "lat": 43.64333333333333,
        "lon": -79.40555555555557,
        "active": true,
        "system": "bike_share_toronto"
    },
    {
        "created_date": "2021-02-06 20:54:13.388408",
        "disabled_date": null,
        "station_id": "7161",
        "name": "Beverley St / College St",
        "lat": 43.6575,
        "lon": -79.39527777777778,
        "active": true,
        "system": "bike_share_toronto"
    },
    {
        "created_date": "2021-02-06 20:54:13.389323",
        "disabled_date": null,
        "station_id": "7162",
        "name": "Hayter St / La Plante Ave",
        "lat": 43.6591666666667,
        "lon": -79.3855555555556,
        "active": true,
        "system": "bike_share_toronto"
    },
    {
        "created_date": "2021-02-06 20:54:13.390252",
        "disabled_date": null,
        "station_id": "7163",
        "name": "Yonge St / Wood St",
        "lat": 43.6622222,
        "lon": -79.3825,
        "active": true,
        "system": "bike_share_toronto"
    },
    {
        "created_date": "2021-02-06 20:54:13.391137",
        "disabled_date": null,
        "station_id": "7164",
        "name": "Gould St / Yonge St (TMU)",
        "lat": 43.657424,
        "lon": -79.381019,
        "active": true,
        "system": "bike_share_toronto"
    },
    {
        "created_date": "2021-02-06 20:54:13.392065",
        "disabled_date": null,
        "station_id": "7167",
        "name": "Queen St E / George St (Moss Park)",
        "lat": 43.6544444,
        "lon": -79.3711111111111,
        "active": false,
        "system": "bike_share_toronto"
    },
    {
        "created_date": "2021-02-06 20:54:13.393011",
        "disabled_date": null,
        "station_id": "7168",
        "name": "Queens Quay / Yonge St",
        "lat": 43.641646,
        "lon": -79.375308,
        "active": true,
        "system": "bike_share_toronto"
    },
    {
        "created_date": "2021-02-06 20:54:13.393941",
        "disabled_date": null,
        "station_id": "7169",
        "name": "Front St W / Bay St (North Side)",
        "lat": 43.646162,
        "lon": -79.378912,
        "active": true,
        "system": "bike_share_toronto"
    },
    {
        "created_date": "2021-02-06 20:54:13.394879",
        "disabled_date": null,
        "station_id": "7170",
        "name": "Spadina Ave / Willcocks St",
        "lat": 43.6616667,
        "lon": -79.40138888888889,
        "active": true,
        "system": "bike_share_toronto"
    },
    {
        "created_date": "2021-02-06 20:54:13.395805",
        "disabled_date": null,
        "station_id": "7171",
        "name": "Ontario Place Blvd / Lake Shore Blvd W",
        "lat": 43.6322445,
        "lon": -79.4108105,
        "active": true,
        "system": "bike_share_toronto"
    },
    {
        "created_date": "2021-02-06 20:54:13.396704",
        "disabled_date": null,
        "station_id": "7172",
        "name": "Strachan Ave / Princes' Blvd",
        "lat": 43.635,
        "lon": -79.4088888888889,
        "active": true,
        "system": "bike_share_toronto"
    },
    {
        "created_date": "2021-02-06 20:54:13.397583",
        "disabled_date": null,
        "station_id": "7173",
        "name": "Cariboo Ave / Railpath Trail",
        "lat": 43.66666667,
        "lon": -79.45833333333334,
        "active": true,
        "system": "bike_share_toronto"
    },
    {
        "created_date": "2021-02-06 20:54:13.398471",
        "disabled_date": null,
        "station_id": "7174",
        "name": "Bloor St W / Dundas St W",
        "lat": 43.6563889,
        "lon": -79.45166666666667,
        "active": true,
        "system": "bike_share_toronto"
    },
    {
        "created_date": "2021-02-06 20:54:13.399367",
        "disabled_date": null,
        "station_id": "7175",
        "name": "HTO Park (Queens Quay W)",
        "lat": 43.63796,
        "lon": -79.387502,
        "active": true,
        "system": "bike_share_toronto"
    },
    {
        "created_date": "2021-02-06 20:54:13.400249",
        "disabled_date": null,
        "station_id": "7176",
        "name": "Bathurst St / Fort York Blvd",
        "lat": 43.639179,
        "lon": -79.399595,
        "active": true,
        "system": "bike_share_toronto"
    },
    {
        "created_date": "2021-02-06 20:54:13.401126",
        "disabled_date": null,
        "station_id": "7177",
        "name": "East Liberty St / Pirandello St",
        "lat": 43.6386111111111,
        "lon": -79.4147222222222,
        "active": false,
        "system": "bike_share_toronto"
    },
    {
        "created_date": "2021-02-06 20:54:13.402010",
        "disabled_date": null,
        "station_id": "7178",
        "name": "Dundas St W / Edna Ave",
        "lat": 43.657192,
        "lon": -79.452559,
        "active": true,
        "system": "bike_share_toronto"
    },
    {
        "created_date": "2021-02-06 20:54:13.402909",
        "disabled_date": null,
        "station_id": "7179",
        "name": "Bloor GO / UP Station (West Toronto Railpath)",
        "lat": 43.658203,
        "lon": -79.45093,
        "active": false,
        "system": "bike_share_toronto"
    },
    {
        "created_date": "2021-02-06 20:54:13.403844",
        "disabled_date": null,
        "station_id": "7180",
        "name": "Lansdowne Subway Station",
        "lat": 43.65922918158098,
        "lon": -79.44320901022282,
        "active": true,
        "system": "bike_share_toronto"
    },
    {
        "created_date": "2021-02-06 20:54:13.404747",
        "disabled_date": null,
        "station_id": "7181",
        "name": "Lansdowne Ave / Whytock Ave",
        "lat": 43.6538888888889,
        "lon": -79.4413888888889,
        "active": true,
        "system": "bike_share_toronto"
    },
    {
        "created_date": "2021-02-06 20:54:13.405663",
        "disabled_date": null,
        "station_id": "7182",
        "name": "Sterling Rd / Dundas St W",
        "lat": 43.6508333333333,
        "lon": -79.4430555555556,
        "active": true,
        "system": "bike_share_toronto"
    },
    {
        "created_date": "2021-02-06 20:54:13.406544",
        "disabled_date": null,
        "station_id": "7183",
        "name": "St Clarens Ave / College St",
        "lat": 43.651238,
        "lon": -79.43868,
        "active": true,
        "system": "bike_share_toronto"
    },
    {
        "created_date": "2021-02-06 20:54:13.407536",
        "disabled_date": null,
        "station_id": "7184",
        "name": "Ossington Ave / College St",
        "lat": 43.6544915,
        "lon": -79.422634,
        "active": true,
        "system": "bike_share_toronto"
    },
    {
        "created_date": "2021-02-06 20:54:13.408779",
        "disabled_date": null,
        "station_id": "7188",
        "name": "Exhibition GO (Atlantic Ave)",
        "lat": 43.637695491830144,
        "lon": -79.42023184193503,
        "active": true,
        "system": "bike_share_toronto"
    },
    {
        "created_date": "2021-02-06 20:54:13.410012",
        "disabled_date": null,
        "station_id": "7189",
        "name": "Augusta Ave / Denison Sq",
        "lat": 43.653766,
        "lon": -79.4016759,
        "active": true,
        "system": "bike_share_toronto"
    },
    {
        "created_date": "2021-02-06 20:54:13.410971",
        "disabled_date": null,
        "station_id": "7190",
        "name": "St. George St / Hoskin Ave",
        "lat": 43.6637403,
        "lon": -79.39806449999999,
        "active": true,
        "system": "bike_share_toronto"
    },
    {
        "created_date": "2021-02-06 20:54:13.412197",
        "disabled_date": null,
        "station_id": "7191",
        "name": "Central Tech  (Harbord St)",
        "lat": 43.661975,
        "lon": -79.407896,
        "active": true,
        "system": "bike_share_toronto"
    },
    {
        "created_date": "2021-02-06 20:54:13.413087",
        "disabled_date": null,
        "station_id": "7192",
        "name": "Harbord St / Clinton St",
        "lat": 43.660414,
        "lon": -79.415646,
        "active": true,
        "system": "bike_share_toronto"
    },
    {
        "created_date": "2021-02-06 20:54:13.413988",
        "disabled_date": null,
        "station_id": "7193",
        "name": "Dufferin St / Queen St W",
        "lat": 43.64309687937765,
        "lon": -79.42875613770637,
        "active": true,
        "system": "bike_share_toronto"
    },
    {
        "created_date": "2021-02-06 20:54:13.414870",
        "disabled_date": null,
        "station_id": "7194",
        "name": "Mortimer Ave / Coxwell Ave",
        "lat": 43.690564,
        "lon": -79.326319,
        "active": true,
        "system": "bike_share_toronto"
    },
    {
        "created_date": "2021-02-06 20:54:13.415823",
        "disabled_date": null,
        "station_id": "7195",
        "name": "Ulster St / Bathurst St",
        "lat": 43.66,
        "lon": -79.4088888888889,
        "active": true,
        "system": "bike_share_toronto"
    },
    {
        "created_date": "2021-02-06 20:54:13.416771",
        "disabled_date": null,
        "station_id": "7196",
        "name": "Roxton Rd / Harbord St",
        "lat": 43.65905,
        "lon": -79.422988,
        "active": true,
        "system": "bike_share_toronto"
    },
    {
        "created_date": "2021-02-06 20:54:13.417672",
        "disabled_date": null,
        "station_id": "7197",
        "name": "Queen St W / Dovercourt Rd",
        "lat": 43.6438602,
        "lon": -79.4227573,
        "active": true,
        "system": "bike_share_toronto"
    },
    {
        "created_date": "2021-02-06 20:54:13.418563",
        "disabled_date": null,
        "station_id": "7198",
        "name": "Queen St W / Cowan Ave",
        "lat": 43.64089724173822,
        "lon": -79.43283582518329,
        "active": true,
        "system": "bike_share_toronto"
    },
    {
        "created_date": "2021-02-06 20:54:13.419498",
        "disabled_date": null,
        "station_id": "7199",
        "name": "College St / Markham St",
        "lat": 43.6563888888889,
        "lon": -79.4091666666667,
        "active": true,
        "system": "bike_share_toronto"
    },
    {
        "created_date": "2021-02-06 20:54:13.420381",
        "disabled_date": null,
        "station_id": "7202",
        "name": "Queen St W / Bay St (City Hall)",
        "lat": 43.6517925,
        "lon": -79.38269509999999,
        "active": true,
        "system": "bike_share_toronto"
    },
    {
        "created_date": "2021-02-06 20:54:13.421329",
        "disabled_date": null,
        "station_id": "7203",
        "name": "Bathurst St/Queens Quay(Billy Bishop Airport)",
        "lat": 43.635492,
        "lon": -79.398253,
        "active": true,
        "system": "bike_share_toronto"
    },
    {
        "created_date": "2021-02-06 20:54:13.422232",
        "disabled_date": null,
        "station_id": "7204",
        "name": "College St / Crawford St",
        "lat": 43.655,
        "lon": -79.418889,
        "active": true,
        "system": "bike_share_toronto"
    },
    {
        "created_date": "2021-02-06 20:54:13.423103",
        "disabled_date": null,
        "station_id": "7205",
        "name": "Rusholme Park Cres / College St",
        "lat": 43.65277778,
        "lon": -79.42972222,
        "active": true,
        "system": "bike_share_toronto"
    },
    {
        "created_date": "2021-02-06 20:54:13.424002",
        "disabled_date": null,
        "station_id": "7206",
        "name": "Claremont St / Dundas St W",
        "lat": 43.651281,
        "lon": -79.411717,
        "active": true,
        "system": "bike_share_toronto"
    },
    {
        "created_date": "2021-02-06 20:54:13.424864",
        "disabled_date": null,
        "station_id": "7207",
        "name": "Dundas St W / Crawford St",
        "lat": 43.649722,
        "lon": -79.416944,
        "active": true,
        "system": "bike_share_toronto"
    },
    {
        "created_date": "2021-02-06 20:54:13.425741",
        "disabled_date": null,
        "station_id": "7208",
        "name": "80 Clinton St",
        "lat": 43.656296,
        "lon": -79.414663,
        "active": true,
        "system": "bike_share_toronto"
    },
    {
        "created_date": "2021-02-06 20:54:13.426621",
        "disabled_date": null,
        "station_id": "7209",
        "name": "Ossington Ave / Harrison St",
        "lat": 43.651111111111106,
        "lon": -79.4213888888889,
        "active": true,
        "system": "bike_share_toronto"
    },
    {
        "created_date": "2021-02-06 20:54:13.427497",
        "disabled_date": null,
        "station_id": "7210",
        "name": "Mary McCormick Rec Centre (Sheridan Ave)",
        "lat": 43.6475,
        "lon": -79.43305555555555,
        "active": true,
        "system": "bike_share_toronto"
    },
    {
        "created_date": "2021-02-06 20:54:13.428379",
        "disabled_date": null,
        "station_id": "7211",
        "name": "Fort York Blvd / Garrison Rd",
        "lat": 43.637381,
        "lon": -79.406112,
        "active": true,
        "system": "bike_share_toronto"
    },
    {
        "created_date": "2021-02-06 20:54:13.429307",
        "disabled_date": null,
        "station_id": "7216",
        "name": "Wellington St W / Stafford St",
        "lat": 43.6409957,
        "lon": -79.40966630000001,
        "active": true,
        "system": "bike_share_toronto"
    },
    {
        "created_date": "2021-02-06 20:54:13.430176",
        "disabled_date": null,
        "station_id": "7217",
        "name": "Soho St / Queen St W",
        "lat": 43.649649714291584,
        "lon": -79.39372141352654,
        "active": true,
        "system": "bike_share_toronto"
    },
    {
        "created_date": "2021-02-06 20:54:13.431185",
        "disabled_date": null,
        "station_id": "7220",
        "name": "Lake Shore Blvd W / Ellis Ave",
        "lat": 43.635932,
        "lon": -79.465083,
        "active": true,
        "system": "bike_share_toronto"
    },
    {
        "created_date": "2021-02-06 20:54:13.432059",
        "disabled_date": null,
        "station_id": "7221",
        "name": "High Park Subway Station",
        "lat": 43.6543604,
        "lon": -79.4655296,
        "active": false,
        "system": "bike_share_toronto"
    },
    {
        "created_date": "2021-02-06 20:54:13.432948",
        "disabled_date": null,
        "station_id": "7222",
        "name": "Sunnyside - Gus Ryder Pool",
        "lat": 43.637894,
        "lon": -79.454823,
        "active": true,
        "system": "bike_share_toronto"
    },
    {
        "created_date": "2021-02-06 20:54:13.433846",
        "disabled_date": null,
        "station_id": "7223",
        "name": "Parkside Dr / Bloor St W - SMART",
        "lat": 43.654501,
        "lon": -79.460053,
        "active": true,
        "system": "bike_share_toronto"
    },
    {
        "created_date": "2021-02-06 20:54:13.434706",
        "disabled_date": null,
        "station_id": "7224",
        "name": "Bloor St W / High Park Ave (High Park)",
        "lat": 43.6535269,
        "lon": -79.4650569,
        "active": true,
        "system": "bike_share_toronto"
    },
    {
        "created_date": "2021-02-06 20:54:13.435584",
        "disabled_date": null,
        "station_id": "7225",
        "name": "Lake Shore Blvd W / Windermere Ave",
        "lat": 43.634896,
        "lon": -79.467763,
        "active": true,
        "system": "bike_share_toronto"
    },
    {
        "created_date": "2021-02-06 20:54:13.436451",
        "disabled_date": null,
        "station_id": "7226",
        "name": "Lake Shore Blvd W / The Boulevard Club",
        "lat": 43.636731,
        "lon": -79.444966,
        "active": true,
        "system": "bike_share_toronto"
    },
    {
        "created_date": "2021-02-06 20:54:13.437312",
        "disabled_date": null,
        "station_id": "7227",
        "name": "Martin Goodman Trail (Marilyn Bell Park)",
        "lat": 43.6314,
        "lon": -79.4304,
        "active": true,
        "system": "bike_share_toronto"
    },
    {
        "created_date": "2021-02-06 20:54:13.438174",
        "disabled_date": null,
        "station_id": "7228",
        "name": "King St W / Wilson Park Blvd",
        "lat": 43.6372958,
        "lon": -79.4423237,
        "active": true,
        "system": "bike_share_toronto"
    },
    {
        "created_date": "2021-02-06 20:54:13.439042",
        "disabled_date": null,
        "station_id": "7229",
        "name": "Dundas St W / Roncesvalles Ave Green P -SMART",
        "lat": 43.6534268,
        "lon": -79.4512787,
        "active": true,
        "system": "bike_share_toronto"
    },
    {
        "created_date": "2021-02-06 20:54:13.439928",
        "disabled_date": null,
        "station_id": "7230",
        "name": "Garden Ave / Roncesvalles Ave",
        "lat": 43.643769,
        "lon": -79.447915,
        "active": true,
        "system": "bike_share_toronto"
    },
    {
        "created_date": "2021-02-06 20:54:13.440808",
        "disabled_date": null,
        "station_id": "7231",
        "name": "Wright Ave / Sorauren Ave - SMART",
        "lat": 43.646677,
        "lon": -79.442741,
        "active": true,
        "system": "bike_share_toronto"
    },
    {
        "created_date": "2021-02-06 20:54:13.441684",
        "disabled_date": null,
        "station_id": "7232",
        "name": "Queen St W  /  Fuller Ave - SMART",
        "lat": 43.640255,
        "lon": -79.439223,
        "active": true,
        "system": "bike_share_toronto"
    },
    {
        "created_date": "2021-02-06 20:54:13.442575",
        "disabled_date": null,
        "station_id": "7233",
        "name": "King St W / Cowan Ave - SMART",
        "lat": 43.637922,
        "lon": -79.431734,
        "active": true,
        "system": "bike_share_toronto"
    },
    {
        "created_date": "2021-02-06 20:54:13.443451",
        "disabled_date": null,
        "station_id": "7234",
        "name": "Roncesvalles Ave / Marmaduke St",
        "lat": 43.650492,
        "lon": -79.450842,
        "active": true,
        "system": "bike_share_toronto"
    },
    {
        "created_date": "2021-02-06 20:54:13.444350",
        "disabled_date": null,
        "station_id": "7235",
        "name": "Bay St / College St (West Side) - SMART",
        "lat": 43.660087,
        "lon": -79.385655,
        "active": true,
        "system": "bike_share_toronto"
    },
    {
        "created_date": "2021-02-06 20:54:13.445230",
        "disabled_date": null,
        "station_id": "7236",
        "name": "Thompson St / Broadview Ave - SMART",
        "lat": 43.659471,
        "lon": -79.350325,
        "active": true,
        "system": "bike_share_toronto"
    },
    {
        "created_date": "2021-02-06 20:54:13.446107",
        "disabled_date": null,
        "station_id": "7237",
        "name": "Ward St / Wallace Ave",
        "lat": 43.662857,
        "lon": -79.44618,
        "active": true,
        "system": "bike_share_toronto"
    },
    {
        "created_date": "2021-02-06 20:54:13.446976",
        "disabled_date": null,
        "station_id": "7238",
        "name": "Sorauren Ave / Geoffrey St - SMART",
        "lat": 43.649172,
        "lon": -79.4445087,
        "active": true,
        "system": "bike_share_toronto"
    },
    {
        "created_date": "2021-02-06 20:54:13.447837",
        "disabled_date": null,
        "station_id": "7239",
        "name": "Bloor St W / Manning Ave - SMART",
        "lat": 43.663912,
        "lon": -79.416124,
        "active": true,
        "system": "bike_share_toronto"
    },
    {
        "created_date": "2021-02-06 20:54:13.448759",
        "disabled_date": null,
        "station_id": "7240",
        "name": "Bloor St W / Shaw St - SMART",
        "lat": 43.662403,
        "lon": -79.423098,
        "active": true,
        "system": "bike_share_toronto"
    },
    {
        "created_date": "2021-02-06 20:54:13.449646",
        "disabled_date": null,
        "station_id": "7241",
        "name": "519 Church St",
        "lat": 43.6668334195837,
        "lon": -79.38120391054117,
        "active": true,
        "system": "bike_share_toronto"
    },
    {
        "created_date": "2021-02-06 20:54:13.450512",
        "disabled_date": null,
        "station_id": "7242",
        "name": "Lake Shore Blvd W / Ontario Dr",
        "lat": 43.630254,
        "lon": -79.420317,
        "active": true,
        "system": "bike_share_toronto"
    },
    {
        "created_date": "2021-02-06 20:54:13.451376",
        "disabled_date": null,
        "station_id": "7243",
        "name": "Exhibition GO Station",
        "lat": 43.6352007,
        "lon": -79.4187711,
        "active": false,
        "system": "bike_share_toronto"
    },
    {
        "created_date": "2021-02-06 20:54:13.452255",
        "disabled_date": null,
        "station_id": "7244",
        "name": "Dufferin Gate - SMART",
        "lat": 43.633473,
        "lon": -79.425679,
        "active": true,
        "system": "bike_share_toronto"
    },
    {
        "created_date": "2021-02-06 20:54:13.453139",
        "disabled_date": null,
        "station_id": "7245",
        "name": "Tecumseth St / Queen St W - SMART",
        "lat": 43.646552,
        "lon": -79.406468,
        "active": true,
        "system": "bike_share_toronto"
    },
    {
        "created_date": "2021-02-06 20:54:13.454022",
        "disabled_date": null,
        "station_id": "7246",
        "name": "Yonge St / Bloor St",
        "lat": 43.669969,
        "lon": -79.386532,
        "active": true,
        "system": "bike_share_toronto"
    },
    {
        "created_date": "2021-02-06 20:54:13.454949",
        "disabled_date": null,
        "station_id": "7247",
        "name": "Howard Park Ave / Dundas St W - SMART",
        "lat": 43.6521,
        "lon": -79.4486,
        "active": true,
        "system": "bike_share_toronto"
    },
    {
        "created_date": "2021-02-06 20:54:13.455843",
        "disabled_date": null,
        "station_id": "7248",
        "name": "Baldwin St / Spadina Ave - SMART",
        "lat": 43.654905,
        "lon": -79.398448,
        "active": true,
        "system": "bike_share_toronto"
    },
    {
        "created_date": "2021-02-06 20:54:13.456729",
        "disabled_date": null,
        "station_id": "7249",
        "name": "Lakeview Ave / Harrison St (Green P) \u2013 SMART",
        "lat": 43.651145,
        "lon": -79.423742,
        "active": true,
        "system": "bike_share_toronto"
    },
    {
        "created_date": "2021-02-06 20:54:13.457603",
        "disabled_date": null,
        "station_id": "7250",
        "name": "Ursula Franklin St / St. George St - SMART",
        "lat": 43.660296,
        "lon": -79.397107,
        "active": true,
        "system": "bike_share_toronto"
    },
    {
        "created_date": "2021-02-06 20:54:13.458523",
        "disabled_date": null,
        "station_id": "7251",
        "name": "The Royal Ontario Museum (Bloor St Entrance)",
        "lat": 43.668500046272165,
        "lon": -79.3946235999697,
        "active": false,
        "system": "bike_share_toronto"
    },
    {
        "created_date": "2021-02-06 20:54:13.459407",
        "disabled_date": null,
        "station_id": "7252",
        "name": "Robert St / Bloor St W - SMART",
        "lat": 43.665846,
        "lon": -79.404998,
        "active": true,
        "system": "bike_share_toronto"
    },
    {
        "created_date": "2021-02-06 20:54:13.460269",
        "disabled_date": null,
        "station_id": "7253",
        "name": "John St  / Mercer St - SMART",
        "lat": 43.6461,
        "lon": -79.3895,
        "active": true,
        "system": "bike_share_toronto"
    },
    {
        "created_date": "2021-02-06 20:54:13.461135",
        "disabled_date": null,
        "station_id": "7254",
        "name": "Thomson Memorial Park - SMART",
        "lat": 43.758011617206606,
        "lon": -79.2547288808813,
        "active": false,
        "system": "bike_share_toronto"
    },
    {
        "created_date": "2021-02-06 20:54:13.462007",
        "disabled_date": null,
        "station_id": "7255",
        "name": "Stewart St / Bathurst St  - SMART",
        "lat": 43.643307,
        "lon": -79.402176,
        "active": false,
        "system": "bike_share_toronto"
    },
    {
        "created_date": "2021-02-06 20:54:13.462908",
        "disabled_date": null,
        "station_id": "7256",
        "name": "Vanauley St / Queen St W - SMART",
        "lat": 43.648437,
        "lon": -79.39838,
        "active": true,
        "system": "bike_share_toronto"
    },
    {
        "created_date": "2021-02-06 20:54:13.463831",
        "disabled_date": null,
        "station_id": "7257",
        "name": "Dundas St W / St. Patrick St",
        "lat": 43.6545174,
        "lon": -79.3895315,
        "active": true,
        "system": "bike_share_toronto"
    },
    {
        "created_date": "2021-02-06 20:54:13.464717",
        "disabled_date": null,
        "station_id": "7258",
        "name": "Queen St E / Rushbrooke Ave",
        "lat": 43.6626628,
        "lon": -79.3323698,
        "active": true,
        "system": "bike_share_toronto"
    },
    {
        "created_date": "2021-02-06 20:54:13.465614",
        "disabled_date": null,
        "station_id": "7259",
        "name": "Lower Spadina Ave / Lake Shore Blvd W",
        "lat": 43.638497,
        "lon": -79.39192,
        "active": true,
        "system": "bike_share_toronto"
    },
    {
        "created_date": "2021-02-06 20:54:13.466490",
        "disabled_date": null,
        "station_id": "7260",
        "name": "Spadina Ave / Adelaide St W",
        "lat": 43.6472019,
        "lon": -79.3953394,
        "active": true,
        "system": "bike_share_toronto"
    },
    {
        "created_date": "2021-02-06 20:54:13.467367",
        "disabled_date": null,
        "station_id": "7261",
        "name": "Queens Quay E / Lower Sherbourne St",
        "lat": 43.645215,
        "lon": -79.364898,
        "active": true,
        "system": "bike_share_toronto"
    },
    {
        "created_date": "2021-02-06 20:54:13.468240",
        "disabled_date": null,
        "station_id": "7262",
        "name": "Wychwood Ave / Benson Ave - SMART",
        "lat": 43.6809164,
        "lon": -79.4229684,
        "active": true,
        "system": "bike_share_toronto"
    },
    {
        "created_date": "2021-02-06 20:54:13.469155",
        "disabled_date": null,
        "station_id": "7263",
        "name": "Walton St / Elizabeth St - SMART",
        "lat": 43.657838,
        "lon": -79.38631,
        "active": false,
        "system": "bike_share_toronto"
    },
    {
        "created_date": "2021-02-06 20:54:13.470022",
        "disabled_date": null,
        "station_id": "7264",
        "name": "Bloor St E / Huntley St - SMART",
        "lat": 43.671535,
        "lon": -79.379173,
        "active": true,
        "system": "bike_share_toronto"
    },
    {
        "created_date": "2021-02-06 20:54:13.470882",
        "disabled_date": null,
        "station_id": "7265",
        "name": "Wallace Ave / Symington Ave - SMART",
        "lat": 43.661324,
        "lon": -79.449534,
        "active": true,
        "system": "bike_share_toronto"
    },
    {
        "created_date": "2021-02-06 20:54:13.471747",
        "disabled_date": null,
        "station_id": "7266",
        "name": "Victoria Park Subway Station - SMART",
        "lat": 43.6940155,
        "lon": -79.2889842,
        "active": true,
        "system": "bike_share_toronto"
    },
    {
        "created_date": "2021-02-06 20:54:13.472628",
        "disabled_date": null,
        "station_id": "7267",
        "name": "Dundas St E / Pembroke St - SMART",
        "lat": 43.658295,
        "lon": -79.372346,
        "active": true,
        "system": "bike_share_toronto"
    },
    {
        "created_date": "2021-02-06 20:54:13.473620",
        "disabled_date": null,
        "station_id": "7268",
        "name": "111 Bond St (North of Dundas St E)  - SMART",
        "lat": 43.656927,
        "lon": -79.378497,
        "active": true,
        "system": "bike_share_toronto"
    },
    {
        "created_date": "2021-02-06 20:54:13.474525",
        "disabled_date": null,
        "station_id": "7269",
        "name": "Toronto Eaton Centre (Yonge St) - SMART",
        "lat": 43.655431,
        "lon": -79.380653,
        "active": true,
        "system": "bike_share_toronto"
    },
    {
        "created_date": "2021-02-06 20:54:13.475405",
        "disabled_date": null,
        "station_id": "7270",
        "name": "Church St / Dundas St E - SMART",
        "lat": 43.657024,
        "lon": -79.377257,
        "active": true,
        "system": "bike_share_toronto"
    },
    {
        "created_date": "2021-02-06 20:54:13.476305",
        "disabled_date": null,
        "station_id": "7271",
        "name": "Yonge St / Alexander St - SMART",
        "lat": 43.662862,
        "lon": -79.383572,
        "active": true,
        "system": "bike_share_toronto"
    },
    {
        "created_date": "2021-02-06 20:54:13.477241",
        "disabled_date": null,
        "station_id": "7272",
        "name": "Yonge St / Dundonald St - SMART",
        "lat": 43.665801,
        "lon": -79.384796,
        "active": true,
        "system": "bike_share_toronto"
    },
    {
        "created_date": "2021-02-06 20:54:13.478117",
        "disabled_date": null,
        "station_id": "7273",
        "name": "Bay St / Charles St W - SMART",
        "lat": 43.668153,
        "lon": -79.38891,
        "active": true,
        "system": "bike_share_toronto"
    },
    {
        "created_date": "2021-02-06 20:54:13.479020",
        "disabled_date": null,
        "station_id": "7274",
        "name": "Queen's Park Cres E / Grosvenor St - SMART",
        "lat": 43.661803,
        "lon": -79.389682,
        "active": true,
        "system": "bike_share_toronto"
    },
    {
        "created_date": "2021-02-06 20:54:13.479900",
        "disabled_date": null,
        "station_id": "7275",
        "name": "Queen St W / James St",
        "lat": 43.652276,
        "lon": -79.380701,
        "active": false,
        "system": "bike_share_toronto"
    },
    {
        "created_date": "2021-02-06 20:54:13.480776",
        "disabled_date": null,
        "station_id": "7276",
        "name": "Bloor St W / Balmuto St",
        "lat": 43.66981064282057,
        "lon": -79.38801106873031,
        "active": true,
        "system": "bike_share_toronto"
    },
    {
        "created_date": "2021-02-06 20:54:13.481645",
        "disabled_date": null,
        "station_id": "7277",
        "name": "Chorley Park - SMART",
        "lat": 43.6856,
        "lon": -79.3718,
        "active": true,
        "system": "bike_share_toronto"
    },
    {
        "created_date": "2021-02-06 20:54:13.482529",
        "disabled_date": null,
        "station_id": "7278",
        "name": "Mallon Ave / Jones Ave -SMART",
        "lat": 43.66587,
        "lon": -79.33443,
        "active": true,
        "system": "bike_share_toronto"
    },
    {
        "created_date": "2021-02-06 20:54:13.483400",
        "disabled_date": null,
        "station_id": "7279",
        "name": "Rosehill Ave / Avoca Ave - SMART",
        "lat": 43.687999,
        "lon": -79.38906,
        "active": true,
        "system": "bike_share_toronto"
    },
    {
        "created_date": "2021-02-06 20:54:13.484286",
        "disabled_date": null,
        "station_id": "7280",
        "name": "Charles St E / Jarvis St - SMART",
        "lat": 43.669604,
        "lon": -79.381171,
        "active": true,
        "system": "bike_share_toronto"
    },
    {
        "created_date": "2021-02-06 20:54:13.485164",
        "disabled_date": null,
        "station_id": "7281",
        "name": "Charles St W / Balmuto St - SMART",
        "lat": 43.668427,
        "lon": -79.38725,
        "active": true,
        "system": "bike_share_toronto"
    },
    {
        "created_date": "2021-02-06 20:54:13.486044",
        "disabled_date": null,
        "station_id": "7282",
        "name": "Adelaide St W / Bay St",
        "lat": 43.650152,
        "lon": -79.379856,
        "active": true,
        "system": "bike_share_toronto"
    },
    {
        "created_date": "2021-02-06 20:54:13.486938",
        "disabled_date": null,
        "station_id": "7283",
        "name": "Front St W / Bay St (South Side)",
        "lat": 43.64595,
        "lon": -79.378761,
        "active": true,
        "system": "bike_share_toronto"
    },
    {
        "created_date": "2021-02-06 20:54:13.487845",
        "disabled_date": null,
        "station_id": "7284",
        "name": "University Ave / King St W - SMART",
        "lat": 43.6477785,
        "lon": -79.3847928,
        "active": true,
        "system": "bike_share_toronto"
    },
    {
        "created_date": "2021-02-06 20:54:13.488708",
        "disabled_date": null,
        "station_id": "7285",
        "name": "Spadina Ave / Harbord St - SMART",
        "lat": 43.6629228,
        "lon": -79.4018451,
        "active": true,
        "system": "bike_share_toronto"
    },
    {
        "created_date": "2021-02-06 20:54:13.489590",
        "disabled_date": null,
        "station_id": "7286",
        "name": "Gerrard St E / Broadview Ave  - SMART",
        "lat": 43.665656,
        "lon": -79.352055,
        "active": true,
        "system": "bike_share_toronto"
    },
    {
        "created_date": "2021-02-06 20:54:13.490457",
        "disabled_date": null,
        "station_id": "7287",
        "name": "Queen St E / Pape Ave - SMART",
        "lat": 43.661673,
        "lon": -79.337789,
        "active": true,
        "system": "bike_share_toronto"
    },
    {
        "created_date": "2021-02-06 20:54:13.491323",
        "disabled_date": null,
        "station_id": "7288",
        "name": "Humber Bay Shores Park West",
        "lat": 43.6224434,
        "lon": -79.480284,
        "active": true,
        "system": "bike_share_toronto"
    },
    {
        "created_date": "2021-02-06 20:54:13.492239",
        "disabled_date": null,
        "station_id": "7289",
        "name": "Humber Bay Shores Park East",
        "lat": 43.6308933,
        "lon": -79.4722622,
        "active": true,
        "system": "bike_share_toronto"
    },
    {
        "created_date": "2021-02-06 20:54:13.493097",
        "disabled_date": null,
        "station_id": "7291",
        "name": "190 Queens Quay E",
        "lat": 43.6451308,
        "lon": -79.36536439999999,
        "active": true,
        "system": "bike_share_toronto"
    },
    {
        "created_date": "2021-02-06 20:54:13.493991",
        "disabled_date": null,
        "station_id": "7292",
        "name": "Granby St / Church St - SMART",
        "lat": 43.6614605,
        "lon": -79.37894570000002,
        "active": true,
        "system": "bike_share_toronto"
    },
    {
        "created_date": "2021-02-06 20:54:13.494855",
        "disabled_date": null,
        "station_id": "7293",
        "name": "College St / McCaul St",
        "lat": 43.65906,
        "lon": -79.393771,
        "active": false,
        "system": "bike_share_toronto"
    },
    {
        "created_date": "2021-02-06 20:54:13.495746",
        "disabled_date": null,
        "station_id": "7296",
        "name": "Westmoreland Ave / Fernbank Ave",
        "lat": 43.665327,
        "lon": -79.43235,
        "active": true,
        "system": "bike_share_toronto"
    },
    {
        "created_date": "2021-02-06 20:54:13.496629",
        "disabled_date": null,
        "station_id": "7297",
        "name": "Havelock St / Dufferin Park",
        "lat": 43.657343,
        "lon": -79.43112,
        "active": true,
        "system": "bike_share_toronto"
    },
    {
        "created_date": "2021-02-06 20:54:13.497522",
        "disabled_date": null,
        "station_id": "7298",
        "name": "Bathurst St / Adelaide St W",
        "lat": 43.645324,
        "lon": -79.40345,
        "active": true,
        "system": "bike_share_toronto"
    },
    {
        "created_date": "2021-02-06 20:54:13.498406",
        "disabled_date": null,
        "station_id": "7299",
        "name": "Mill St / Parliament St",
        "lat": 43.650256,
        "lon": -79.36163,
        "active": true,
        "system": "bike_share_toronto"
    },
    {
        "created_date": "2021-02-06 20:54:13.499303",
        "disabled_date": null,
        "station_id": "7301",
        "name": "Primrose Ave / Davenport Rd",
        "lat": 43.67142,
        "lon": -79.445947,
        "active": true,
        "system": "bike_share_toronto"
    },
    {
        "created_date": "2021-02-06 20:54:13.500185",
        "disabled_date": null,
        "station_id": "7302",
        "name": "Winona Dr / Davenport Rd",
        "lat": 43.674923,
        "lon": -79.430465,
        "active": true,
        "system": "bike_share_toronto"
    },
    {
        "created_date": "2021-02-06 20:54:13.501067",
        "disabled_date": null,
        "station_id": "7303",
        "name": "Queen St E / Woodward Ave",
        "lat": 43.665269,
        "lon": -79.319796,
        "active": true,
        "system": "bike_share_toronto"
    },
    {
        "created_date": "2021-02-06 20:54:13.501940",
        "disabled_date": null,
        "station_id": "7309",
        "name": "Queen St E / Rhodes Ave",
        "lat": 43.666224,
        "lon": -79.317693,
        "active": true,
        "system": "bike_share_toronto"
    },
    {
        "created_date": "2021-02-06 20:54:13.502850",
        "disabled_date": null,
        "station_id": "7311",
        "name": "Sherbourne St / Isabella St",
        "lat": 43.669576,
        "lon": -79.375961,
        "active": true,
        "system": "bike_share_toronto"
    },
    {
        "created_date": "2021-02-06 20:54:13.503763",
        "disabled_date": null,
        "station_id": "7312",
        "name": "Amelia St / Sumach St",
        "lat": 43.66852,
        "lon": -79.363525,
        "active": true,
        "system": "bike_share_toronto"
    },
    {
        "created_date": "2021-02-06 20:54:13.504677",
        "disabled_date": null,
        "station_id": "7313",
        "name": "Emdaabiimok Ave / Lake Shore Blvd E",
        "lat": 43.662771,
        "lon": -79.315223,
        "active": true,
        "system": "bike_share_toronto"
    },
    {
        "created_date": "2021-02-06 20:54:13.505593",
        "disabled_date": null,
        "station_id": "7314",
        "name": "Queen St. E / Eastern Ave",
        "lat": 43.667208,
        "lon": -79.312315,
        "active": true,
        "system": "bike_share_toronto"
    },
    {
        "created_date": "2021-02-06 20:54:13.506482",
        "disabled_date": null,
        "station_id": "7315",
        "name": "Queen St E / Hammersmith Ave",
        "lat": 43.671349,
        "lon": -79.29451,
        "active": true,
        "system": "bike_share_toronto"
    },
    {
        "created_date": "2021-02-06 20:54:13.507365",
        "disabled_date": null,
        "station_id": "7316",
        "name": "Queen St. E / Spruce Hill Rd.",
        "lat": 43.672571,
        "lon": -79.289,
        "active": true,
        "system": "bike_share_toronto"
    },
    {
        "created_date": "2021-02-06 20:54:13.508246",
        "disabled_date": null,
        "station_id": "7317",
        "name": "Hubbard Blvd / Balsam Av",
        "lat": 43.669328,
        "lon": -79.288949,
        "active": true,
        "system": "bike_share_toronto"
    },
    {
        "created_date": "2021-02-06 20:54:13.509148",
        "disabled_date": null,
        "station_id": "7318",
        "name": "Hubbard Blvd / Glen Manor Dr",
        "lat": 43.668633,
        "lon": -79.291162,
        "active": true,
        "system": "bike_share_toronto"
    },
    {
        "created_date": "2021-02-06 20:54:13.510041",
        "disabled_date": null,
        "station_id": "7319",
        "name": "Lake Shore Blvd E / Knox Ave",
        "lat": 43.660206,
        "lon": -79.3244,
        "active": true,
        "system": "bike_share_toronto"
    },
    {
        "created_date": "2021-02-06 20:54:13.510921",
        "disabled_date": null,
        "station_id": "7320",
        "name": "Front St W / University Ave (1)",
        "lat": 43.6451635,
        "lon": -79.3831757,
        "active": true,
        "system": "bike_share_toronto"
    },
    {
        "created_date": "2021-02-06 20:54:13.511819",
        "disabled_date": null,
        "station_id": "7321",
        "name": "Front St W / University Ave (2)",
        "lat": 43.6452972,
        "lon": -79.3827914,
        "active": true,
        "system": "bike_share_toronto"
    },
    {
        "created_date": "2021-02-06 20:54:13.512724",
        "disabled_date": null,
        "station_id": "7322",
        "name": "East Liberty St / Western Battery Rd",
        "lat": 43.6392777,
        "lon": -79.4115736,
        "active": true,
        "system": "bike_share_toronto"
    },
    {
        "created_date": "2021-02-06 20:54:13.513637",
        "disabled_date": null,
        "station_id": "7323",
        "name": "457 King St W",
        "lat": 43.6452091,
        "lon": -79.3960744,
        "active": true,
        "system": "bike_share_toronto"
    },
    {
        "created_date": "2021-02-06 20:54:13.514540",
        "disabled_date": null,
        "station_id": "7324",
        "name": "King St W / Charlotte St",
        "lat": 43.645572,
        "lon": -79.39399,
        "active": true,
        "system": "bike_share_toronto"
    },
    {
        "created_date": "2021-02-06 20:54:13.515428",
        "disabled_date": null,
        "station_id": "7326",
        "name": "Davenport Rd / Lansdowne Ave",
        "lat": 43.671526,
        "lon": -79.44874,
        "active": true,
        "system": "bike_share_toronto"
    },
    {
        "created_date": "2021-02-06 20:54:13.516330",
        "disabled_date": null,
        "station_id": "7327",
        "name": "Davenport Rd / Dovercourt Rd - SMART",
        "lat": 43.6741219,
        "lon": -79.4352208,
        "active": true,
        "system": "bike_share_toronto"
    },
    {
        "created_date": "2021-02-06 20:54:13.517211",
        "disabled_date": null,
        "station_id": "7328",
        "name": "Roxborough St W / Yonge St",
        "lat": 43.678077,
        "lon": -79.390328,
        "active": false,
        "system": "bike_share_toronto"
    },
    {
        "created_date": "2021-02-06 20:54:13.518092",
        "disabled_date": null,
        "station_id": "7329",
        "name": "Crawford St / Queen St W",
        "lat": 43.645665,
        "lon": -79.415345,
        "active": true,
        "system": "bike_share_toronto"
    },
    {
        "created_date": "2021-02-06 20:54:13.519030",
        "disabled_date": null,
        "station_id": "7330",
        "name": "Lee Ave / Queen St E",
        "lat": 43.669863,
        "lon": -79.297786,
        "active": false,
        "system": "bike_share_toronto"
    },
    {
        "created_date": "2021-02-06 20:54:13.519918",
        "disabled_date": null,
        "station_id": "7331",
        "name": "Coxwell Ave / Plains Rd",
        "lat": 43.69595,
        "lon": -79.328535,
        "active": true,
        "system": "bike_share_toronto"
    },
    {
        "created_date": "2021-02-06 20:54:13.520792",
        "disabled_date": null,
        "station_id": "7332",
        "name": "200 Bloor St E",
        "lat": 43.671561,
        "lon": -79.38117,
        "active": true,
        "system": "bike_share_toronto"
    },
    {
        "created_date": "2021-02-06 20:54:13.521678",
        "disabled_date": null,
        "station_id": "7333",
        "name": "King St E / Victoria St",
        "lat": 43.6495789,
        "lon": -79.3762096,
        "active": true,
        "system": "bike_share_toronto"
    },
    {
        "created_date": "2021-02-06 20:54:13.522575",
        "disabled_date": null,
        "station_id": "7334",
        "name": "Simcoe St / Wellington St W North",
        "lat": 43.6462176,
        "lon": -79.3855048,
        "active": true,
        "system": "bike_share_toronto"
    },
    {
        "created_date": "2021-02-06 20:54:13.523455",
        "disabled_date": null,
        "station_id": "7335",
        "name": "Bay St / Bloor St W (West Side)",
        "lat": 43.669244,
        "lon": -79.3894,
        "active": true,
        "system": "bike_share_toronto"
    },
    {
        "created_date": "2021-02-06 20:54:13.524374",
        "disabled_date": null,
        "station_id": "7336",
        "name": "Queen St E / Alton Av",
        "lat": 43.663912,
        "lon": -79.327987,
        "active": true,
        "system": "bike_share_toronto"
    },
    {
        "created_date": "2021-02-06 20:54:13.525293",
        "disabled_date": null,
        "station_id": "7337",
        "name": "Gerrard Square Mall (1010 Gerrard St E)",
        "lat": 43.668553,
        "lon": -79.338673,
        "active": true,
        "system": "bike_share_toronto"
    },
    {
        "created_date": "2021-02-06 20:54:13.526204",
        "disabled_date": null,
        "station_id": "7338",
        "name": "Logan Ave / Bain Ave",
        "lat": 43.6720273,
        "lon": -79.3470557,
        "active": true,
        "system": "bike_share_toronto"
    },
    {
        "created_date": "2021-02-06 20:54:13.527100",
        "disabled_date": null,
        "station_id": "7339",
        "name": "Carlaw Ave / Strathcona Ave",
        "lat": 43.6753188,
        "lon": -79.3462789,
        "active": true,
        "system": "bike_share_toronto"
    },
    {
        "created_date": "2021-02-06 20:54:13.527986",
        "disabled_date": null,
        "station_id": "7340",
        "name": "Blake St / Boultbee Ave",
        "lat": 43.672453,
        "lon": -79.338259,
        "active": true,
        "system": "bike_share_toronto"
    },
    {
        "created_date": "2021-02-06 20:54:13.528906",
        "disabled_date": null,
        "station_id": "7341",
        "name": "Eastern Ave / Winnifred Ave",
        "lat": 43.6592088,
        "lon": -79.3348396,
        "active": true,
        "system": "bike_share_toronto"
    },
    {
        "created_date": "2021-02-06 20:54:13.529798",
        "disabled_date": null,
        "station_id": "7342",
        "name": "Morse St / Eastern Ave",
        "lat": 43.657991,
        "lon": -79.340075,
        "active": true,
        "system": "bike_share_toronto"
    },
    {
        "created_date": "2021-02-06 20:54:13.530811",
        "disabled_date": null,
        "station_id": "7343",
        "name": "Alton Ave / Dundas St E (Greenwood Park)",
        "lat": 43.66745,
        "lon": -79.329408,
        "active": true,
        "system": "bike_share_toronto"
    },
    {
        "created_date": "2021-02-06 20:54:13.531745",
        "disabled_date": null,
        "station_id": "7344",
        "name": "Cherry Beach",
        "lat": 43.637764,
        "lon": -79.345359,
        "active": true,
        "system": "bike_share_toronto"
    },
    {
        "created_date": "2021-02-06 20:54:13.532638",
        "disabled_date": null,
        "station_id": "7345",
        "name": "Cherry Beach Sports Fields (55 Unwin Ave)",
        "lat": 43.6408346,
        "lon": -79.3429074,
        "active": true,
        "system": "bike_share_toronto"
    },
    {
        "created_date": "2021-02-06 20:54:13.533596",
        "disabled_date": null,
        "station_id": "7346",
        "name": "Logan Ave / Gerrard St E",
        "lat": 43.6672144,
        "lon": -79.3452697,
        "active": true,
        "system": "bike_share_toronto"
    },
    {
        "created_date": "2021-02-06 20:54:13.534512",
        "disabled_date": null,
        "station_id": "7347",
        "name": "Regal Rd / Dufferin St",
        "lat": 43.673939,
        "lon": -79.441159,
        "active": true,
        "system": "bike_share_toronto"
    },
    {
        "created_date": "2021-02-06 20:54:13.535403",
        "disabled_date": null,
        "station_id": "7348",
        "name": "Pape Ave / Gamble Ave",
        "lat": 43.690237,
        "lon": -79.350119,
        "active": true,
        "system": "bike_share_toronto"
    },
    {
        "created_date": "2021-02-06 20:54:13.536317",
        "disabled_date": null,
        "station_id": "7349",
        "name": "Gamble Ave / Broadview Ave",
        "lat": 43.689211,
        "lon": -79.35438,
        "active": true,
        "system": "bike_share_toronto"
    },
    {
        "created_date": "2021-02-06 20:54:13.537204",
        "disabled_date": null,
        "station_id": "7350",
        "name": "Broadview Ave / Westwood Ave",
        "lat": 43.6848652,
        "lon": -79.356602,
        "active": true,
        "system": "bike_share_toronto"
    },
    {
        "created_date": "2021-02-06 20:54:13.538143",
        "disabled_date": null,
        "station_id": "7351",
        "name": "Pretoria Ave / Broadview Ave",
        "lat": 43.6783213,
        "lon": -79.35822,
        "active": true,
        "system": "bike_share_toronto"
    },
    {
        "created_date": "2021-02-06 20:54:13.539066",
        "disabled_date": null,
        "station_id": "7352",
        "name": "Cosburn Ave / Donlands Ave",
        "lat": 43.690537,
        "lon": -79.341307,
        "active": true,
        "system": "bike_share_toronto"
    },
    {
        "created_date": "2021-02-06 20:54:13.539976",
        "disabled_date": null,
        "station_id": "7353",
        "name": "Fulton Ave / Pape Ave",
        "lat": 43.68395,
        "lon": -79.347046,
        "active": true,
        "system": "bike_share_toronto"
    },
    {
        "created_date": "2021-02-06 20:54:13.540872",
        "disabled_date": null,
        "station_id": "7354",
        "name": "Tommy Thompson Park (Leslie Street Spit)",
        "lat": 43.65222662225532,
        "lon": -79.32295440954084,
        "active": true,
        "system": "bike_share_toronto"
    },
    {
        "created_date": "2021-02-06 20:54:13.541765",
        "disabled_date": null,
        "station_id": "7355",
        "name": "Beltline Trail / Chaplin Cres",
        "lat": 43.704461,
        "lon": -79.423122,
        "active": true,
        "system": "bike_share_toronto"
    },
    {
        "created_date": "2021-02-06 20:54:13.542679",
        "disabled_date": null,
        "station_id": "7356",
        "name": "King St E / Berkeley St",
        "lat": 43.651885,
        "lon": -79.3649,
        "active": true,
        "system": "bike_share_toronto"
    },
    {
        "created_date": "2021-02-06 20:54:13.543609",
        "disabled_date": null,
        "station_id": "7357",
        "name": "Lake Shore Blvd E / Leslie St",
        "lat": 43.659195,
        "lon": -79.329196,
        "active": true,
        "system": "bike_share_toronto"
    },
    {
        "created_date": "2021-02-06 20:54:13.544509",
        "disabled_date": null,
        "station_id": "7358",
        "name": "Galbraith Rd / King's College Rd",
        "lat": 43.6603874468082,
        "lon": -79.39537831814152,
        "active": true,
        "system": "bike_share_toronto"
    },
    {
        "created_date": "2021-02-06 20:54:13.545390",
        "disabled_date": null,
        "station_id": "7359",
        "name": "Rosedale Park (20 Scholfield Ave)",
        "lat": 43.682645,
        "lon": -79.377557,
        "active": true,
        "system": "bike_share_toronto"
    },
    {
        "created_date": "2021-02-06 20:54:13.546289",
        "disabled_date": null,
        "station_id": "7360",
        "name": "Concord Ave / Dewson St",
        "lat": 43.656945,
        "lon": -79.424911,
        "active": true,
        "system": "bike_share_toronto"
    },
    {
        "created_date": "2021-02-06 20:54:13.547201",
        "disabled_date": null,
        "station_id": "7361",
        "name": "Hocken Ave / Vaughan Rd",
        "lat": 43.6817346,
        "lon": -79.4184725,
        "active": true,
        "system": "bike_share_toronto"
    },
    {
        "created_date": "2021-02-06 20:54:13.548084",
        "disabled_date": null,
        "station_id": "7362",
        "name": "St Clair Ave W / Bathurst St.",
        "lat": 43.683296,
        "lon": -79.418734,
        "active": true,
        "system": "bike_share_toronto"
    },
    {
        "created_date": "2021-02-06 20:54:13.548972",
        "disabled_date": null,
        "station_id": "7363",
        "name": "Wells Hill Ave / St Clair Ave W",
        "lat": 43.683351,
        "lon": -79.41562,
        "active": true,
        "system": "bike_share_toronto"
    },
    {
        "created_date": "2021-02-06 20:54:13.549847",
        "disabled_date": null,
        "station_id": "7364",
        "name": "Queen St E / Nursewood Rd",
        "lat": 43.673831,
        "lon": -79.281455,
        "active": true,
        "system": "bike_share_toronto"
    },
    {
        "created_date": "2021-02-06 20:54:13.550722",
        "disabled_date": null,
        "station_id": "7365",
        "name": "Kewbeach Ave / Kenilworth Ave",
        "lat": 43.666325,
        "lon": -79.3014,
        "active": true,
        "system": "bike_share_toronto"
    },
    {
        "created_date": "2021-02-06 20:54:13.551589",
        "disabled_date": null,
        "station_id": "7366",
        "name": "Fort York Blvd / Bathurst St - SMART",
        "lat": 43.639052,
        "lon": -79.399792,
        "active": true,
        "system": "bike_share_toronto"
    },
    {
        "created_date": "2021-02-06 20:54:13.552486",
        "disabled_date": null,
        "station_id": "7367",
        "name": "Alma Ave / Gladstone Ave SMART",
        "lat": 43.6448617,
        "lon": -79.42822,
        "active": true,
        "system": "bike_share_toronto"
    },
    {
        "created_date": "2021-02-06 20:54:13.553357",
        "disabled_date": null,
        "station_id": "7368",
        "name": "Lisgar St / Dundas St W - SMART",
        "lat": 43.6493472,
        "lon": -79.42668,
        "active": true,
        "system": "bike_share_toronto"
    },
    {
        "created_date": "2021-02-06 20:54:13.554269",
        "disabled_date": null,
        "station_id": "7369",
        "name": "Dupont St / Emerson Ave SMART",
        "lat": 43.667266,
        "lon": -79.443946,
        "active": false,
        "system": "bike_share_toronto"
    },